[
  {
    "id": 1,
    "type": "Физ.лицо",
    "name": "Иванов Иван Иванович",
    "phone": "+7 999 999 99 99",
    "location": "г. Красноярск, Красноярский край",
    "address": "ул. Ленина, д.111, кв.10"
  },
  {
    "id": 2,
    "type": "Физ.лицо",
    "name": "Петров Петр Петрович",
    "phone": "+7 999 888 77 66",
    "location": "г. Москва, Московская область",
    "address": "ул. Тверская, д.25, кв.42"
  },
  {
    "id": 3,
    "type": "Юр.лицо",
    "name": "ООО СДЭК-ГЛОБАЛ",
    "phone": "+7 495 123 45 67",
    "location": "г. Москва, Московская область",
    "address": "ул. Арбат, д.10, офис 15"
  },
  {
    "id": 4,
    "type": "Юр.лицо",
    "name": "ООО ЛОГИСТИК-ЦЕНТР",
    "phone": "+7 812 987 65 43",
    "location": "г. Санкт-Петербург, Ленинградская область",
    "address": "пр. Невский, д.78, офис 320"
  },
  {
    "id": 5,
    "type": "Физ.лицо",
    "name": "Сидоров Алексей Владимирович",
    "phone": "+7 999 777 55 33",
    "location": "г. Екатеринбург, Свердловская область",
    "address": "ул. Малышева, д.56, кв.89"
  },
  {
    "id": 6,
    "type": "Юр.лицо",
    "name": "ИП Кузнецова О.В.",
    "phone": "+7 999 222 33 44",
    "location": "г. Новосибирск, Новосибирская область",
    "address": "ул. Ленина, д.15, офис 7"
  },
  {
    "id": 7,
    "type": "Физ.лицо",
    "name": "Смирнова Анна Николаевна",
    "phone": "+7 999 444 55 66",
    "location": "г. Красноярск, Красноярский край",
    "address": "пр. Мира, д.120, кв.45"
  },
  {
    "id": 8,
    "type": "Юр.лицо",
    "name": "ООО ТРАНС-ЭКСПРЕСС",
    "phone": "+7 383 111 22 33",
    "location": "г. Новосибирск, Новосибирская область",
    "address": "ул. Кирова, д.32, офис 401"
  },
  {
    "id": 9,
    "type": "Физ.лицо",
    "name": "Козлов Дмитрий Сергеевич",
    "phone": "+7 999 333 22 11",
    "location": "г. Казань, Республика Татарстан",
    "address": "ул. Баумана, д.18, кв.73"
  },
  {
    "id": 10,
    "type": "Юр.лицо",
    "name": "ИП Соколов Р.М.",
    "phone": "+7 999 111 22 33",
    "location": "г. Самара, Самарская область",
    "address": "ул. Куйбышева, д.95, офис 12"
  },
  {
    "id": 11,
    "type": "Физ.лицо",
    "name": "Орлова Елена Игоревна",
    "phone": "+7 999 555 66 77",
    "location": "г. Уфа, Республика Башкортостан",
    "address": "ул. Ленина, д.45, кв.28"
  },
  {
    "id": 12,
    "type": "Юр.лицо",
    "name": "ООО БЫСТРАЯ ДОСТАВКА",
    "phone": "+7 343 789 45 61",
    "location": "г. Екатеринбург, Свердловская область",
    "address": "ул. 8 Марта, д.51, офис 220"
  }
] 